{
"type": "FeatureCollection",
"name": "railwaystations",
"crs": { "type": "name", "properties": { "name": "urn:ogc:def:crs:OGC:1.3:CRS84" } },
"features": [
{ "type": "Feature", "properties": { "mvt_id": 1, "type": "London Underground Station", "name": "Nine Elms" }, "geometry": { "type": "Point", "coordinates": [ -0.129416584968563, 51.480100013662224 ] } },
{ "type": "Feature", "properties": { "mvt_id": 1, "type": "Railway Station And London Underground Station", "name": "Vauxhall" }, "geometry": { "type": "Point", "coordinates": [ -0.122770071029659, 51.485855998136287 ] } },
{ "type": "Feature", "properties": { "mvt_id": 2, "type": "London Underground Station", "name": "Oval" }, "geometry": { "type": "Point", "coordinates": [ -0.112406015396115, 51.481987575570294 ] } },
{ "type": "Feature", "properties": { "mvt_id": 1, "type": "Railway Station And London Underground Station", "name": "Charing Cross" }, "geometry": { "type": "Point", "coordinates": [ -0.124792456626888, 51.507891059879057 ] } },
{ "type": "Feature", "properties": { "mvt_id": 2, "type": "London Underground Station", "name": "Westminster" }, "geometry": { "type": "Point", "coordinates": [ -0.124974846839901, 51.501319728258032 ] } },
{ "type": "Feature", "properties": { "mvt_id": 3, "type": "London Underground Station", "name": "Embankment" }, "geometry": { "type": "Point", "coordinates": [ -0.122340917587277, 51.507310096186984 ] } },
{ "type": "Feature", "properties": { "mvt_id": 4, "type": "Railway Station And London Underground Station", "name": "Waterloo" }, "geometry": { "type": "Point", "coordinates": [ -0.113307237625118, 51.503183037442625 ] } },
{ "type": "Feature", "properties": { "mvt_id": 5, "type": "London Underground Station", "name": "Lambeth North" }, "geometry": { "type": "Point", "coordinates": [ -0.111799836158749, 51.499075641878882 ] } },
{ "type": "Feature", "properties": { "mvt_id": 1, "type": "London Underground Station", "name": "Leicester Square" }, "geometry": { "type": "Point", "coordinates": [ -0.128166675567623, 51.511286544313499 ] } },
{ "type": "Feature", "properties": { "mvt_id": 2, "type": "London Underground Station", "name": "Covent Garden" }, "geometry": { "type": "Point", "coordinates": [ -0.124197006225582, 51.513022584106132 ] } },
{ "type": "Feature", "properties": { "mvt_id": 4, "type": "London Underground Station", "name": "Temple" }, "geometry": { "type": "Point", "coordinates": [ -0.113698840141293, 51.511086227772516 ] } },
{ "type": "Feature", "properties": { "mvt_id": 1, "type": "London Underground Station", "name": "Kennington" }, "geometry": { "type": "Point", "coordinates": [ -0.105856060981764, 51.48835125722416 ] } },
{ "type": "Feature", "properties": { "mvt_id": 2, "type": "Railway Station And London Underground Station", "name": "Elephant and Castle" }, "geometry": { "type": "Point", "coordinates": [ -0.098662376403822, 51.494112879955878 ] } },
{ "type": "Feature", "properties": { "mvt_id": 1, "type": "Railway Station", "name": "Waterloo East" }, "geometry": { "type": "Point", "coordinates": [ -0.109047889709486, 51.504174767715845 ] } },
{ "type": "Feature", "properties": { "mvt_id": 2, "type": "London Underground Station", "name": "Southwark" }, "geometry": { "type": "Point", "coordinates": [ -0.104901194572462, 51.503897619677836 ] } },
{ "type": "Feature", "properties": { "mvt_id": 3, "type": "London Underground Station", "name": "Borough" }, "geometry": { "type": "Point", "coordinates": [ -0.093598365783705, 51.501249602231255 ] } },
{ "type": "Feature", "properties": { "mvt_id": 1, "type": "Light Rapid Transit Station And London Underground Station", "name": "Bank" }, "geometry": { "type": "Point", "coordinates": [ -0.089210271835341, 51.513396491709955 ] } },
{ "type": "Feature", "properties": { "mvt_id": 4, "type": "Railway Station", "name": "City Thameslink" }, "geometry": { "type": "Point", "coordinates": [ -0.103527903556837, 51.513974039387882 ] } },
{ "type": "Feature", "properties": { "mvt_id": 5, "type": "Railway Station And London Underground Station", "name": "Blackfriars" }, "geometry": { "type": "Point", "coordinates": [ -0.103324055671706, 51.511373347874375 ] } },
{ "type": "Feature", "properties": { "mvt_id": 7, "type": "London Underground Station", "name": "St Paul's" }, "geometry": { "type": "Point", "coordinates": [ -0.097530484199538, 51.514952181469027 ] } },
{ "type": "Feature", "properties": { "mvt_id": 8, "type": "London Underground Station", "name": "Mansion House" }, "geometry": { "type": "Point", "coordinates": [ -0.094172358512892, 51.512104494381056 ] } },
{ "type": "Feature", "properties": { "mvt_id": 9, "type": "Railway Station And London Underground Station", "name": "Cannon Street" }, "geometry": { "type": "Point", "coordinates": [ -0.090454816818251, 51.510969376050198 ] } },
{ "type": "Feature", "properties": { "mvt_id": 1, "type": "Railway Station And London Underground Station", "name": "London Bridge" }, "geometry": { "type": "Point", "coordinates": [ -0.085138678550718, 51.504338384440949 ] } },
{ "type": "Feature", "properties": { "mvt_id": 2, "type": "London Underground Station", "name": "Monument" }, "geometry": { "type": "Point", "coordinates": [ -0.086415410041807, 51.510795767223584 ] } },
{ "type": "Feature", "properties": { "mvt_id": 4, "type": "London Underground Station", "name": "Tower Hill" }, "geometry": { "type": "Point", "coordinates": [ -0.076233744621274, 51.510077954475555 ] } },
{ "type": "Feature", "properties": { "mvt_id": 5, "type": "Railway Station", "name": "Fenchurch Street" }, "geometry": { "type": "Point", "coordinates": [ -0.07609963417053, 51.510972714674992 ] } },
{ "type": "Feature", "properties": { "mvt_id": 6, "type": "London Underground Station", "name": "Aldgate" }, "geometry": { "type": "Point", "coordinates": [ -0.075702667236326, 51.514304540256255 ] } },
{ "type": "Feature", "properties": { "mvt_id": 7, "type": "Light Rapid Transit Station", "name": "Tower Gateway" }, "geometry": { "type": "Point", "coordinates": [ -0.074468851089475, 51.510628835035632 ] } },
{ "type": "Feature", "properties": { "mvt_id": 8, "type": "London Underground Station", "name": "Aldgate East" }, "geometry": { "type": "Point", "coordinates": [ -0.072124600410459, 51.515129112776236 ] } },
{ "type": "Feature", "properties": { "mvt_id": 1, "type": "Railway Station", "name": "South Bermondsey" }, "geometry": { "type": "Point", "coordinates": [ -0.05456149578096, 51.488164201036646 ] } },
{ "type": "Feature", "properties": { "mvt_id": 2, "type": "Railway Station", "name": "Surrey Quays" }, "geometry": { "type": "Point", "coordinates": [ -0.047619938850418, 51.493271227443344 ] } },
{ "type": "Feature", "properties": { "mvt_id": 1, "type": "London Underground Station", "name": "Bermondsey" }, "geometry": { "type": "Point", "coordinates": [ -0.063863396644607, 51.497703088162545 ] } },
{ "type": "Feature", "properties": { "mvt_id": 2, "type": "Railway Station", "name": "Wapping" }, "geometry": { "type": "Point", "coordinates": [ -0.055843591690078, 51.504335045329981 ] } },
{ "type": "Feature", "properties": { "mvt_id": 3, "type": "Railway Station", "name": "Rotherhithe" }, "geometry": { "type": "Point", "coordinates": [ -0.051986575126663, 51.500882273661354 ] } },
{ "type": "Feature", "properties": { "mvt_id": 4, "type": "Railway Station And London Underground Station", "name": "Canada Water" }, "geometry": { "type": "Point", "coordinates": [ -0.049631595611587, 51.497826653085518 ] } },
{ "type": "Feature", "properties": { "mvt_id": 2, "type": "Railway Station", "name": "Shadwell" }, "geometry": { "type": "Point", "coordinates": [ -0.056921839714065, 51.511299898718235 ] } }
]
}
